City,Pr/St,Cntry,lat,lng
Houston,TX,USA,29.760803,-95.369506
Massena,NY,USA,44.928021,-74.891824
STILLWATER,MN,USA,45.055745,-92.810143
Hastings,MN,USA,44.74229,-92.852565
Minnetonka,MN,USA,44.938058,-93.466322
BELLMAWR,NJ,USA,39.866488,-75.079485
Bojnice,,SVK,48.77875,18.58295
Fort Lauderdale,FL,USA,26.124163,-80.143586
Natick,MA,USA,42.283773,-71.347292
Rancho Cucamonga,CA,USA,34.106399,-117.575764
Bolton,CT,USA,41.770886,-72.443722
Dorchester,MA,USA,42.297199,-71.074997
Ithaca,NY,USA,42.422372,-76.461572
Commerce,MI,USA,42.590972,-83.490865
Ornskoldsvik,,SWE,63.29071,18.7156
St. Clair,MI,USA,42.820979,-82.486312
Barrie,ON,CAN,44.1207,-79.56649
Milwaukee,WI,USA,43.041072,-87.909421
Hingham,MA,USA,42.241794,-70.890006
Rosenheim,,DEU,47.853927,12.127262
Pembroke Pines,FL,USA,26.006156,-80.279747
Nousiainen,,FIN,60.59892,22.08239
Vaxjo,,SWE,56.92424,14.7332
Minneapolis,MN,USA,44.977479,-93.264346
Burnsville,MN,USA,44.762056,-93.275772
Palos,IL,USA,41.703762,-87.831846
San Francisco,CA,USA,37.78008,-122.420168
Loviisa,,FIN,60.45699,26.2255
Sun Prairie,WI,USA,43.183305,-89.213637
Syracuse,NY,USA,43.047945,-76.147448
Elk River,MN,USA,45.307777,-93.57741
Kennebunkport,ME,USA,43.360884,-70.474104
Tyumen,,RUS,55.36559,55.91308
Edmonton,AB,CAN,52.13543,-113.8727
Boston,MA,USA,42.358894,-71.056742
Pontiac,MI,USA,42.638782,-83.292696
Port Huron,MI,USA,42.975041,-82.424522
Hopkins,MN,USA,44.924392,-93.413946
SANDY,UT,USA,40.569705,-111.897282
Madison,WI,USA,43.073926,-89.385244
Dearborn Heights,MI,USA,42.331748,-83.277557
Sternberk,,CZE,49.73032,17.2971
Eau Claire,WI,USA,44.812135,-91.49917
Massapequa,NY,USA,40.675899,-73.474602
Rochester Hills,MI,USA,42.652398,-83.132561
Riverside,CT,USA,41.033877,-73.579464
Belleville,ON,CAN,43.79474,-79.74813
San Diego,CA,USA,32.71576,-117.163817
Anahim Lake,BC,CAN,52.47392,-125.32879
Island Park,NY,USA,40.601336,-73.655878
Fussen,,DEU,47.570921,10.697709
Oxford,MI,USA,42.824749,-83.264049
Braintree,MA,USA,42.207125,-71.004215
Ceské Budejovice,,CZE,48.97391,14.47502
Edina,MN,USA,44.910489,-93.348666
Kansas City,MO,USA,39.099792,-94.578559
Plzen,,CZE,49.52271,13.12021
Ville Degelis,QC,CAN,47.547063,-68.642984
Forssa,,FIN,60.81293,23.62138
South St. Paul,MN,USA,44.89068,-93.037253
Middletown,NJ,USA,40.394098,-74.117227
Härnösand,,SWE,62.63232,17.93795
Marshfield,MA,USA,42.091912,-70.710266
Helsingborg,,SWE,56.03867,12.6732
De Pere,WI,USA,44.44754,-88.070584
Chicago,IL,USA,41.883229,-87.632398
Everett,WA,USA,47.97913,-122.195893
Biddeford,ME,USA,43.482944,-70.471358
Lantzville,BC,CAN,49.25294,-124.08483
Spokane,WA,USA,47.658999,-117.425022
Holland,MI,USA,42.751561,-86.096297
Chaska,MN,USA,44.78933,-93.601848
Piikkio,,FIN,60.42478,22.51615
North Bay,ON,CAN,46.30946,-79.46163
Malmö,,SWE,55.60331,13.00131
Arvika,,SWE,59.65468,12.59118
Los Angeles,CA,USA,34.052238,-118.243344
Plymouth,MN,USA,45.018311,-93.473853
Haapavesi,,FIN,64.13729,25.36713
Zilina,,SVK,49.17754,19.19136
Grand Rapids,MI,USA,42.965446,-85.670209
New Lenox,IL,USA,41.512186,-87.965824
New Westminster,BC,CAN,49.18731,-122.95039
Landskrona,,SWE,55.87043,12.83016
Vihti,,FIN,60.41704,24.32045
Laurier-Station,QC,CAN,46.55014,-71.64454
West Vancouver,BC,CAN,49.28659,-123.11583
Greenfield Park,QC,CAN,45.49504,-73.49179
Geneva,IL,USA,41.887556,-88.305095
Marblehead,MA,USA,42.495748,-70.863318
Clinton,ON,CAN,43.5409,-80.25858
Ust-Kamenogorsk,,KAZ,49.95752,82.5903
Nove Mesto na Morave,,CZE,49.55278,16.07648
Walpole,MA,USA,42.144777,-71.253786
Richmond Hill,ON,CAN,43.87481,-79.4478
Raleigh,NC,USA,35.781295,-78.64167
Pointe-Claire,QC,CAN,45.65723,-75.9174
West Seneca,NY,USA,42.843272,-78.790813
Duluth,MN,USA,46.782882,-92.105457
Evanston,IL,USA,42.052157,-87.687867
Chesterfield,MO,USA,38.661405,-90.564272
Alvkarleby,,SWE,60.57085,17.44843
Ann Arbor,MI,USA,42.281419,-83.748478
Oviedo,FL,USA,28.67029,-81.208479
Landshut,,DEU,48.536262,12.151651
Warroad,MN,USA,48.906708,-95.320123
Virginia,MN,USA,47.523153,-92.538658
Oakville,ON,CAN,43.46406,-79.68522
Brondby,,DNK,55.63787,12.40451
Maple Ridge,BC,CAN,49.2084,-122.65417
Kauniainen,,FIN,60.20993,24.72758
Bonney Lake,WA,USA,47.191959,-122.180652
Gothenburg,,SWE,57.69699,11.9865
Milford,CT,USA,41.224276,-73.057564
East Lansing,MI,USA,42.781472,-84.482761
Bloomington,MN,USA,44.826255,-93.303856
Livonia,MI,USA,42.39709,-83.36961
Saint-Narcisse,QC,CAN,48.97817,-64.37539
Tibro,,SWE,58.42436,14.16182
Georgetown,ON,CAN,42.99047,-81.31967
Anchorage,AK,USA,61.216583,-149.899597
Lewisville,TX,USA,33.046344,-96.994166
Paris,ON,CAN,46.45178,-81.00336
Baudette,MN,USA,48.712482,-94.600115
Caroline,AB,CAN,52.00978,-110.77386
Omaha,NE,USA,41.258652,-95.937195
Narva,,EST,59.376692,28.192106
Hearst,ON,CAN,46.33882,-79.46985
Windsor,ON,CAN,42.31408,-83.03686
Hilton Head Isl.,SC,USA,32.215401,-80.747563
Charlestown,MA,USA,42.3778,-71.0625
Haliburton,ON,CAN,42.94698,-81.33267
Ústí nad Labem,,CZE,50.56654,13.79634
Drummondville,QC,CAN,45.87778,-72.50815
Halmstad,,SWE,55.94016,13.05738
Melville,SK,CAN,52.08975,-106.67048
Sodertalje,,SWE,59.15784,17.64598
Viking,AB,CAN,52.23482,-113.74655
St. Thomas,ON,CAN,42.32084,-82.87795
Chambersburg,PA,USA,39.937306,-77.659708
Kindersley,SK,CAN,51.47496,-109.1611
Zhukovskiy,,RUS,55.8476,38.41255
Perth,ON,CAN,44.8972,-76.24621
Charlotte,NC,USA,35.222936,-80.840161
Staten Island,NY,USA,40.643498,-74.076203
Provost,AB,CAN,52.82493,-110.88949
St. Louis,MO,USA,38.630276,-90.200309
Ham Lake,MN,USA,45.257006,-93.204099
Detroit,MI,USA,42.332916,-83.047853
Norrkoping,,SWE,58.58282,16.23408
Canton,MA,USA,42.158931,-71.144957
Newmarket,ON,CAN,45.41001,-75.62232
Scottsdale,AZ,USA,33.494909,-111.926061
Fullerton,CA,USA,33.870345,-117.924302
St. Paul,AB,CAN,53.99872,-111.26709
Vantaa,,FIN,60.29441,25.04007
Shaunavon,SK,CAN,49.62641,-108.49701
Carmel,IN,USA,39.978386,-86.127067
Berlin,,DEU,52.517037,13.38886
Winnetka,IL,USA,42.107106,-87.734719
Olten,,CHE,47.3501,7.90259
Caledonia,ON,CAN,43.07077,-79.95335
Hinsdale,IL,USA,41.803685,-87.927236
Winchester,ON,CAN,42.98811,-82.36089
Farmingville,NY,USA,40.83191,-73.03413
Plantation,FL,USA,26.128276,-80.242374
Orillia,ON,CAN,44.45528,-79.49506
Fribourg,,CHE,46.83034,7.03337
Cologne,,DEU,50.938361,6.959974
Excelsior,MN,USA,44.90353,-93.566226
Kalajoki,,FIN,64.25787,23.94758
Salem,NJ,USA,39.571905,-75.467091
Ajax,ON,CAN,43.60463,-79.70116
Dauphin,MB,CAN,51.15268,-100.04626
Waterford,MI,USA,42.659169,-83.383103
Vienna,,AUT,48.18933,16.40237
Woodbridge,ON,CAN,43.22984,-79.80633
Rochester,NY,USA,43.155708,-77.612547
Welland,ON,CAN,42.96063,-79.2334
Savonlinna,,FIN,61.86835,28.88626
Molnlycke,,SWE,57.66161,12.1288
E. Weymouth,MA,USA,42.213902,-70.920799
Kadan,,CZE,9.54804,5.34873
Trencin,,SVK,48.90253,18.09052
Ile Bizard,QC,CAN,45.5201,-73.86915
Nizhnekamsk,,ROU,49.29257,1.68688
Hamilton,ON,CAN,43.25653,-79.87442
Boden,,SWE,57.61736,13.009
Moncton,NB,CAN,46.0387,-64.07865
Lloydminster,SK,CAN,53.42437,-109.91323
Meadow Lake,SK,CAN,54.12039,-108.45648
Eden Prairie,MN,USA,44.854033,-93.46017
Oulunsalo,,FIN,64.93499,25.40213
Brantford,ON,CAN,42.9398,-80.42417
East Palestine,OH,USA,40.832654,-80.539842
Thunder Bay,ON,CAN,48.38251,-89.24549
Skokie,IL,USA,42.026307,-87.754692
Thornhill,ON,CAN,43.53348,-80.29799
Morristown,NJ,USA,40.79664,-74.481595
Cobourg,ON,CAN,43.97003,-78.17098
Hancock,MI,USA,47.130692,-88.591217
Kitchener,ON,CAN,43.69917,-80.38436
Hartford,CT,USA,41.765775,-72.673356
Battleford,SK,CAN,50.30197,-107.80977
Ruse,,BGR,43.60164,26.23825
Cambridge,ON,CAN,43.39779,-80.30722
Brno,,CZE,49.19205,16.61319
New Haven,CT,USA,41.308252,-72.924161
Martin,,SVK,48.25932,17.37086
Chelyabinsk,,RUS,54.07885,42.805
Brockville,ON,CAN,43.54804,-80.22643
Prince Albert,SK,CAN,50.54434,-103.87362
Ilderton,ON,CAN,43.07289,-81.40331
Niagara Falls,NY,USA,43.094464,-79.056432
Ozieri,,ITA,39.22135,9.12023
Richmond,BC,CAN,48.42078,-123.33184
Helsinki,,FIN,60.32593,23.94456
Sherbrooke,QC,CAN,45.2828,-72.1229
Skellefteå,,SWE,64.75373,20.96322
Kromeriz,,CZE,49.29823,17.39268
Lipetsk,,RUS,52.61303,38.54651
Peterborough,ON,CAN,42.41141,-82.21271
Schwenningen,,DEU,48.065705,8.536126
Aalborg,,DNK,57.03686,9.89826
Muskegon,MI,USA,43.234221,-86.246388
Brooklyn,NY,USA,40.692529,-73.990996
Moravska Trebova,,CZE,49.89726,16.45349
Gävle,,SWE,60.6494,17.12438
Roseau,MN,USA,48.84524,-95.764471
Greenwich,CT,USA,41.026526,-73.628549
Brig,,CHE,46.32463,8.00714
Wawota,SK,CAN,49.90156,-102.0745
Indianapolis,IN,USA,39.76845,-86.156212
Sherwood Park,AB,CAN,53.5131,-113.3437
Port Alberni,BC,CAN,49.24779,-124.78576
Sicamous,BC,CAN,50.82009,-118.97224
Vitkov,,CZE,49.77574,17.75215
Carp,ON,CAN,45.26811,-75.93952
East Longmeadow,MA,USA,42.064635,-72.512851
Saskatoon,SK,CAN,52.11811,-106.76828
Grimsby,ON,CAN,43.14578,-79.66829
Mequon,WI,USA,43.221598,-88.014829
Guildford,,GBR,51.235267,-0.565362
Wisconsin Rapids,WI,USA,44.395526,-89.834513
Shawinigan,QC,CAN,46.49308,-72.71359
Gaspe,QC,CAN,48.84198,-64.49091
Sault Ste. Marie,ON,CAN,46.48915,-84.49055
Holland Landing,ON,CAN,44.10324,-79.50835
Pickering,ON,CAN,43.83799,-79.07579
Salt Lake City,UT,USA,40.758478,-111.888142
Dublin,OH,USA,40.099562,-83.113812
New Canaan,CT,USA,41.148498,-73.493705
Binscarth,MB,CAN,49.90165,-96.96684
Nassjo,,SWE,63.58174,16.3295
Novokuznetsk,,RUS,53.93324,86.83282
Anaheim,CA,USA,33.834492,-117.915638
Bromont,QC,CAN,45.3091,-72.62618
Fergus,ON,CAN,43.58383,-79.55393
Listowel,ON,CAN,44.42645,-78.416
Tonka Bay,MN,USA,44.91802,-93.587745
Plover,WI,USA,44.464523,-89.544506
Farmington Hills,MI,USA,42.485645,-83.357869
Comox,BC,CAN,49.68881,-124.9905
Repentigny,QC,CAN,45.51164,-73.45284
Bowmanville,ON,CAN,43.89251,-78.69409
Grand Rapids,MN,USA,47.231455,-93.526879
Woodstock,ON,CAN,43.13039,-80.75468
Huntington,NY,USA,40.87121,-73.426299
Orsk,,RUS,51.2663,57.4939
Sewell,NJ,USA,39.766399,-75.144699
Campbell River,BC,CAN,50.0376,-125.28892
Moscow,,RUS,55.75587,37.61768
North Chelmsford,MA,USA,42.638901,-71.383301
Johnston,RI,USA,41.829855,-71.500696
Ayr,ON,CAN,43.36792,-79.76547
Kladno,,CZE,50.14702,14.10327
Medicine Hat,AB,CAN,50.02733,-110.63372
Columbus,OH,USA,39.962649,-82.996216
Smogen,,SWE,58.35441,11.22516
Buffalo,NY,USA,42.887691,-78.879374
Uppsala,,SWE,60.14607,17.92305
Rødovre,,DNK,55.66548,12.45778
Amos,QC,CAN,45.68589,-73.42433
Stouffville,ON,CAN,43.93272,-79.42034
Park Ridge,IL,USA,42.011007,-87.835869
Torrance,CA,USA,33.836318,-118.340038
Mississauga,ON,CAN,43.60056,-79.64281
Karlskrona,,SWE,55.95583,15.59897
Colorado Springs,CO,USA,38.835224,-104.819798
Maykop,,RUS,45.4551,39.44188
Stratford,ON,CAN,43.36622,-80.98326
Bayonne,,FRA,44.98042,4.02925
Salmon Arm,BC,CAN,50.68754,-119.22185
Langley,BC,CAN,49.10357,-122.65656
Denver,CO,USA,39.738453,-104.984853
Bærum,,NOR,59.89025,10.5255
Rochester,NH,USA,43.303835,-70.975677
Prince George,BC,CAN,53.89764,-121.99055
Wilcox,SK,CAN,49.73141,-104.01433
Kelowna,BC,CAN,49.88902,-119.40383
Katrineholm,,SWE,58.99592,16.20618
Lugnvik,,SWE,62.9145,15.61837
Grand Prairie,AB,CAN,42.57366,2.72174
Rauma,,FIN,61.12115,21.48256
Cadca,,SVK,43.32058,-3.02427
White Rock,BC,CAN,49.80153,-119.09288
Jesenice,,SVN,46.434391,14.057014
Yuzhno-Sakhalinsk,,RUS,46.96507,142.73926
Fort McMurray,AB,CAN,57.22591,-111.6554
St. Petersburg,,RUS,59.97693,30.27554
Kempele,,FIN,64.91292,25.50347
Smithers,BC,CAN,49.30337,-124.3389
Traverse City,MI,USA,44.759092,-85.605469
Plymouth,,GBR,50.371266,-4.142566
Turku,,FIN,60.41791,22.45526
Rimouski,QC,CAN,45.4425,-73.47676
Cole Harbour,NS,CAN,45.26528,-61.26034
Kuopio,,FIN,62.89333,27.67933
Eksjo,,SWE,58.89119,17.83509
Bulach,,CHE,47.51917,8.54043
Pittsburgh,PA,USA,40.442169,-79.994945
Saint-Augustin,QC,CAN,46.6656,-71.23303
Brampton,ON,CAN,43.25055,-79.77775
Huntsville,AL,USA,34.577718,-86.835836
St. Gallen,,CHE,47.22746,9.23499
Volketswil,,CHE,47.38954,8.68757
Klagenfurt,,AUT,46.62367,14.30759
Herisau,,CHE,47.38585,9.27885
Orebro,,SWE,59.38738,15.04728
Sorel,QC,CAN,48.40747,-71.19196
Tampere,,FIN,60.61146,24.80537
Ste-Agathe-Des-Monts,QC,CAN,46.24152,-74.08475
Laval,QC,CAN,45.58373,-73.75007
Petawawa,ON,CAN,45.88554,-77.25718
Orland Park,IL,USA,41.623192,-87.851282
Elkhorn,MB,CAN,49.92136,-97.19822
Scarborough,ON,CAN,43.68356,-79.28836
Linkoping,,SWE,58.41374,15.62351
Strathroy,ON,CAN,43.55653,-79.67567
Bern,,CHE,46.83586,7.65833
Longueuil,QC,CAN,45.60965,-72.97444
Lansing,MI,USA,42.733625,-84.553927
Chatham,ON,CAN,43.25615,-79.89398
Golden,BC,CAN,49.03574,-118.42982
St-Hyacinthe,QC,CAN,45.27499,-71.20462
Ellwood City,PA,USA,40.850506,-80.285069
Brandon,MB,CAN,49.83325,-99.93898
Pincourt,QC,CAN,45.38452,-73.96874
Alma,QC,CAN,45.48093,-73.45331
Roberval,QC,CAN,48.50939,-72.23371
Orangeville,ON,CAN,43.91702,-80.10758
St. Agapit,QC,CAN,46.55712,-71.44352
Joliette,QC,CAN,46.13902,-73.42049
Cherepovets,,RUS,58.76477,38.38519
Warren,MI,USA,42.52144,-83.020184
Cornwall,ON,CAN,43.47106,-79.66781
Cranbrook,BC,CAN,49.5266,-115.75124
Samara,,RUS,51.9584,47.3483
Merrimack,NH,USA,42.866953,-71.495437
Alfred,ON,CAN,42.89928,-78.93502
Airdrie,AB,CAN,51.30006,-114.0194
Fredericton,NB,CAN,46.04135,-65.0502
Winterthur,,CHE,47.54291,8.83627
Markham,ON,CAN,43.85166,-79.25466
Newport News,VA,USA,36.977714,-76.430349
Ljunby,,SWE,65.43916,18.44356
St. Catharines,ON,CAN,43.09504,-79.54004
Oklahoma City,OK,USA,35.468494,-97.521264
Hermantown,MN,USA,46.778627,-92.180035
Coquitlam,BC,CAN,49.34461,-122.77255
Togliatti,,RUS,38.04807,-3.46205
Delta,BC,CAN,50.00306,-114.92954
Kazan,,RUS,55.88335,53.28768
Cherry Hill,NJ,USA,39.925801,-75.030928
Pelhrimov,,CZE,-31.50021,-68.52544
Ste-Agathe,QC,CAN,46.42825,-71.473
South St.Paul,MN,USA,44.89068,-93.037253
San Ramon,CA,USA,37.764907,-121.951061
Boxford,MA,USA,42.658945,-71.000636
Lakeville,MN,USA,44.655985,-93.242746
Yaroslavl,,RUS,58.76477,38.38519
Pisek,,CZE,49.31566,14.16162
Vancouver,BC,CAN,49.09779,-116.51051
Judique,NS,CAN,45.94364,-61.3912
Innisfil,ON,CAN,44.29772,-79.6236
Toronto,ON,CAN,43.83048,-80.83979
Newport Beach,CA,USA,33.615967,-117.930378
Oslo,,NOR,59.89485,10.68979
Boras,,SWE,57.12216,12.87264
Sarnia,ON,CAN,42.99477,-81.30133
Ottawa,ON,CAN,46.36898,-79.93836
Amsterdam,,NLD,52.371009,4.900112
Korkino,,RUS,59.29461,31.20438
Le Blanc-Mesnil,,FRA,48.94934,2.45157
Landsbro,,SWE,57.19266,15.15598
Phoenix,AZ,USA,33.448204,-112.072585
Morweena,MB,CAN,50.99404,-97.40668
Aneroid,SK,CAN,49.65461,-107.31422
Zurich,,CHE,47.397,8.41989
LaSalle,QC,CAN,46.27152,-70.99269
Nordingra,,SWE,62.92913,18.28722
Long Beach,CA,USA,33.767168,-118.193723
Winnipeg,MB,CAN,49.90601,-97.17097
Lulea,,SWE,65.58416,22.15475
Grande Prairie,AB,CAN,55.13956,-118.80502
Dubuque,IA,USA,42.505512,-90.667314
Lycksele,,SWE,64.59527,18.67043
Norrtälje,,SWE,59.45158,17.83554
Magnitogorsk,,RUS,53.39257,58.89178
St. Malo,MB,CAN,49.3138,-96.95277
Mlada Boleslav,,CZE,50.41075,14.90281
Nizhny Tagil,,RUS,57.90802,59.9367
Cardiff,,GBR,51.48353,-3.183687
Swan River,MB,CAN,52.11632,-101.26049
Havirov,,CZE,-31.50021,-68.52544
Eisenstadt,,AUT,47.84588,16.51797
Ivry-sur-Seine,,FRA,48.80781,2.37465
North York,ON,CAN,43.76654,-79.41375
Kosice,,SVK,48.67613,21.28394
Umea,,SWE,63.89795,19.90231
Northbrook,IL,USA,42.130979,-87.831558
Pardubice,,CZE,49.88986,16.11503
Trenton,MI,USA,42.141304,-83.190407
Pilsen,,CZE,49.52271,13.12021
Grosse Pointe,MI,USA,42.386476,-82.910913
Leksand,,SWE,60.73161,14.99708
Ostersund,,SWE,63.17916,14.63566
Sudbury,ON,CAN,43.64125,-79.41969
Karlstad,,SWE,59.88968,18.03408
Burnaby,BC,CAN,49.49763,-119.61182
Abbotsford,BC,CAN,49.09175,-122.28729
Sterling Heights,MI,USA,42.58968,-83.011059
Huddinge,,SWE,59.23615,17.97789
Jihlava,,CZE,49.39933,15.65341
Kramfors,,SWE,62.93037,17.77585
Hodonin,,CZE,49.50167,16.40954
Nizhnekamsk,,RUS,55.63313,51.80914
Sainte-Marie,QC,CAN,46.34166,-71.26128
Rodovre,,DNK,55.66548,12.45778
St. Hyacinthe,QC,CAN,45.27499,-71.20462
Omsk,,RUS,54.39234,74.58418
Plano,TX,USA,33.019695,-96.697586
Lac-Beauport,QC,CAN,47.02031,-71.3426
Montreal,QC,CAN,45.52944,-75.47438
Maplewood,MN,USA,45.006411,-93.025193
Sundbyberg,,SWE,59.36174,17.96967
Mt. Brydges,ON,CAN,42.91539,-81.5143
Smithtown,NY,USA,40.85496,-73.197132
Karkkila,,FIN,60.53414,24.2106
Chur,,CHE,46.84949,9.53067
Southampton,NJ,USA,39.8484,-74.674103
Victoriaville,QC,CAN,46.03018,-71.91712
Surrey,BC,CAN,49.21197,-122.81449
Pori,,FIN,61.47512,22.42728
Saint-Jerome,QC,CAN,45.77286,-73.96983
Praha,,CZE,50.05958,14.46584
Etobicoke,ON,CAN,43.67985,-79.75099
Bratislava,,SVK,48.3305,17.18118
New Rochelle,NY,USA,40.911546,-73.782337
Rumson,NJ,USA,40.376192,-74.009949
Gardena,CA,USA,33.883764,-118.309144
Wallaceburg,ON,CAN,45.31501,-75.93618
Sauble Beach,ON,CAN,44.65014,-81.25228
Prague,,CZE,50.05958,14.46584
Miramichi,NB,CAN,46.12595,-66.61258
Flin Flon,MB,CAN,54.77039,-101.8793
Holliston,MA,USA,42.20053,-71.42789
London,ON,CAN,43.81251,-81.37055
Ostervala,,SWE,60.18071,17.18002
Roubaix,,FRA,48.39679,-4.4961
Riga,,LVA,57.03816,24.06998
Ancienne-Lorette,QC,CAN,46.77431,-71.32623
Borlange,,SWE,60.48535,15.43249
Glace Bay,NS,CAN,46.1759,-59.91926
Ostrava,,CZE,49.84079,18.29088
Njurunda,,SWE,62.26799,17.23777
Kingston,ON,CAN,44.23048,-76.48125
Estevan,SK,CAN,49.16907,-102.99147
Maple Creek,SK,CAN,49.90525,-109.48179
Ilava,,SVK,48.99857,18.23489
Cap-Rouge,QC,CAN,47.41176,-61.80133
St. Paul,MN,USA,44.943719,-93.094281
Lempaala,,FIN,61.31415,23.75254
Snowflake,MB,CAN,49.04693,-98.66015
Chomutov,,CZE,50.46038,13.41801
Lethbridge,AB,CAN,49.6689,-112.79826
Red Deer,AB,CAN,51.47132,-112.79426
Kamloops,BC,CAN,49.55052,-120.52937
Abington,PA,USA,40.115354,-75.116999
Alton,IL,USA,38.903341,-90.149352
St. Cloud,MN,USA,45.569048,-94.115542
Dorchester,ON,CAN,42.9886,-81.05887
Vasteras,,SWE,59.61648,16.55136
North Vancouver,BC,CAN,49.29956,-123.09289
Tarrytown,NY,USA,41.076273,-73.858329
Guelph,ON,CAN,43.54145,-80.27183
Penza,,RUS,53.88665,59.20981
Winchester,MA,USA,42.453158,-71.133759
Písek,,CZE,49.31566,14.16162
Are,,SWE,16.79121,96.12706
Sollentuna,,SWE,59.42848,17.95185
Aurora,ON,CAN,17.56144,-99.50035
Keswick,ON,CAN,43.3449,-79.78595
Burlington,ON,CAN,43.32513,-79.80254
Concord,NH,USA,43.208452,-71.536941
Canton,NY,USA,44.595632,-75.169226
Toijala,,FIN,61.93436,25.13576
Arlington,TX,USA,32.735594,-97.10711
Davidson,SK,CAN,50.41106,-104.60097
Villach,,AUT,46.61594,13.84882
Munich,,DEU,48.13641,11.57753
Rochester,MI,USA,42.682057,-83.133822
Kingsville,ON,CAN,42.03158,-82.76551
Taber,AB,CAN,49.78677,-112.12287
Consort,AB,CAN,51.92605,-110.76082
Charlottetown,PE,CAN,46.26859,-63.11398
Trebic,,CZE,47.88334,-3.49597
Boca Raton,FL,USA,26.35052,-80.089831
Regina,SK,CAN,50.43489,-104.63711
Kingsford,MI,USA,45.796996,-88.071633
Whitby,ON,CAN,43.85478,-78.94822
Morges,,CHE,46.49192,6.47368
Västerås,,SWE,59.61648,16.55136
St. Albert,AB,CAN,53.64253,-113.62565
Trail,BC,CAN,49.20505,-122.95871
Quebec City,QC,CAN,45.47405,-72.66089
Albany,NY,USA,42.651242,-73.755418
Shelby Twp.,MI,USA,42.662102,-82.993698
Oulu,,FIN,65.01265,25.47139
Jyväskylä,,FIN,62.24756,25.65042
"Garden River First Nations",ON,CAN,46.56078,-84.23489
Elk Point,AB,CAN,53.6565,-113.61652
Halifax,NS,CAN,43.74727,-65.31222
Everett,MA,USA,42.408497,-71.054178
Eden,NY,USA,42.652413,-78.896936
Milford,MI,USA,42.591801,-83.595845
Blaine,MN,USA,45.157648,-93.260944
Calgary,AB,CAN,53.46239,-113.4939
Nynashamn,,SWE,58.90785,17.96302
Herning,,DNK,56.13848,8.97318
Hull,QC,CAN,48.19955,-79.06225
Wheaton,IL,USA,41.866128,-88.106633
Sorel-Tracy,QC,CAN,46.01664,-73.16067
Marsta,,SWE,59.28638,14.10445
Grand Forks,ND,USA,47.925705,-97.036068
Winkler,MB,CAN,49.18515,-97.93346
Bronxville,NY,USA,40.936383,-73.831381
Raahe,,FIN,64.68413,24.47914
Lau,,SWE,57.29094,18.62776
Frydek-Mistek,,CZE,49.68527,18.34803
Victoria,BC,CAN,49.09671,-117.71172
Carlyle,SK,CAN,49.76202,-102.25599
Mimico,ON,CAN,43.61302,-79.49301
Long Beach,NY,USA,40.589406,-73.665937
King City,ON,CAN,49.89827,-97.14105
Dorval,QC,CAN,48.48307,-71.52982
St. Andrews,MB,CAN,50.07408,-96.99167
Stockholm,,SWE,59.39417,18.61744
Montmagny,QC,CAN,46.0291,-73.15468
Banská Bystrica,,SVK,48.66863,19.12144